
    {
        "iata": "JFK",
        "name": "John F. Kennedy International Airport",
        "city": "New York",
        "state": "New York",
        "country": "United States",
        "lat": "40.6446",
        "long": "73.7797",
        "zoom": "12",
        "hasPiano": "true",
        "pianoShortLocation": "Terminal 4",
        "lastConfirmed": "N/A",
        "description": "A piano is available for use in Terminal 4."
    },
    {
        "iata": "MUC",
        "name": "Munich International Airport",
        "city": "Munich",
        "state": "Munich",
        "country": "Germany",
        "lat": "48.3536",
        "long": "11.7832",
        "zoom": "12",
        "hasPiano": "true",
        "pianoShortLocation": "N/A",
        "lastConfirmed": "N/A",
        "description": "Munich airport has a piano for public use. No information about the exact location was submitted to airportpianos.org. Have more information? Let us know in the Add a Piano form."
    },
    {
        "iata": "LAX",
        "name": "Los Angeles International Airport",
        "city": "Los Angeles",
        "state": "California",
        "country": "United States",
        "lat": "33.9438",
        "long": "118.4091",
        "zoom": "12",
        "hasPiano": "true",
        "pianoShortLocation": "N/A",
        "lastConfirmed": "N/A",
        "description": "LAX has a piano for public use in T7."
    },
    {
        "iata": "LGA",
        "name": "LaGuardia Airport",
        "city": "New York",
        "state": "New York",
        "country": "United States",
        "lat": "40.7769",
        "long": "73.8740",
        "zoom": "12",
        "hasPiano": "false",
        "pianoShortLocation": "N/A",
        "lastConfirmed": "N/A",
        "description": "LaGuardia Airport does not have a piano in Terminal 2. No information has been submitted for other terminals."
    },
    {
        "iata": "BTV",
        "name": "Burlington International Airport",
        "city": "Burlington",
        "state": "Vermont",
        "country": "United States",
        "lat": "44.4698",
        "long": "-73.1520",
        "zoom": "10",
        "hasPiano": "true",
        "pianoShortLocation": "Between both terminals",
        "lastConfirmed": "August 2023",
        "description": "Side room between the two terminals near a small museum display case. BTV is a small airport and not hard to find."
    },
    {
        "iata": "WAW",
        "name": "Warsaw Chopin Airport",
        "city": "Warsaw",
        "state": "",
        "country": "Poland",
        "lat": "52.1644",
        "long": "20.9697",
        "zoom": "10",
        "hasPiano": "true",
        "pianoShortLocation": "Departures 2",
        "lastConfirmed": "August 2023",
        "description": "A piano may be available for public use in Departures 2 (submitter was not sure about the exact location)."
    },
    {
        "iata": "YYC",
        "name": "Calgary International Airport",
        "city": "Calgary",
        "state": "Alberta",
        "country": "Canada",
        "lat": "51.1308",
        "long": "114.0131",
        "zoom": "10",
        "hasPiano": "true",
        "pianoShortLocation": "Departures",
        "lastConfirmed": "August 2023",
        "description": "A piano is available for public use in the Departures area near Gate 70."
    },
    {
        "iata": "FCO",
        "name": "Leonardo da Vinci-Fiumicino Airport",
        "city": "Rome",
        "state": "Lazio",
        "country": "Italy",
        "lat": "41.8034",
        "lon": "12.2519",
        "zoom": "10",
        "hasPiano": "true",
        "pianoShortLocation": "Terminal 3, near Gate E17",
        "lastConfirmed": "August 2023",
        "description": "Two grand pianos are available for public use in Terminal 3 (imternational flights) near Gate E17, after security."
    },
    {
        "iata": "YYZ",
        "name": "Toronto Pearson International Airport",
        "city": "Toronto",
        "state": "Ontario",
        "country": "Canada",
        "lat": "43.6797",
        "lon": "79.6227",
        "zoom": "10",
        "hasPiano": "true",
        "pianoShortLocation": "Terminal 1",
        "lastConfirmed": "August 2023",
        "description": "An upright piano is available for public use in Terminal 1 at Gate D20."
    },
    {
        "iata": "NCE",
        "name": "Nice Côte d'Azur Airport",
        "city": "Nice",
        "state": "Provence-Alpes-Côte d'Azur",
        "country": "France",
        "lat": "43.6598",
        "lon": "7.2148",
        "zoom": "10",
        "hasPiano": "true",
        "pianoShortLocation": "Terminal 1",
        "lastConfirmed": "August 2023",
        "description": "A piano is available for public use in Terminal 1."
    },
    {
        "iata": "CDG",
        "name": "Charles de Gaulle Airport",
        "city": "Paris",
        "state": "Île-de-France",
        "country": "France",
        "lat": "49.0079",
        "lon": "2.5508",
        "zoom": "10",
        "hasPiano": "true",
        "pianoShortLocation": "Terminals 1 and 3 3",
        "lastConfirmed": "August 2023",
        "description": "A piano is available for public use in Terminal 3 at gate area 2 and in Terminal."
    },
    {
        "iata": "CRL",
        "name": "Brussels South Charleroi Airport",
        "city": "Charleroi",
        "state": "Wallonia",
        "country": "Belgium",
        "lat": "50.46422",
        "lon": "4.464975",
        "zoom": "10",
        "hasPiano": "true",
        "pianoShortLocation": "Terminal 1",
        "lastConfirmed": "August 2023",
        "description": "A piano is available in Terminal 1 after security check."
    },
    {
        "iata": "LMML",
        "name": "Malta International Airport",
        "city": "Luqa",
        "state": "Malta",
        "country": "Malta",
        "lat": "35.8494",
        "lon": "14.4958",
        "zoom": "10",
        "hasPiano": "true",
        "pianoShortLocation": "Departures",
        "lastConfirmed": "August 2023",
        "description": "A piano is available for public use in the Departures area, between gates 1-4 near the Airport Information desk."
    },
    {
        "iata": "SYR",
        "name": "Syracuse Hancock International Airport",
        "city": "Syracuse",
        "state": "New York",
        "country": "United States",
        "lat": "43.0481",
        "lon": "76.1474",
        "zoom": "10",
        "hasPiano": "true",
        "pianoShortLocation": "Main departures hall",
        "lastConfirmed": "August 2023",
        "description": "A piano is available for public use in the main departures hall before the security escalators."
    },
    {
        "iata": "CLT",
        "name": "Charlotte Douglas International Airport",
        "city": "Charlotte",
        "state": "North Carolina",
        "country": "United States",
        "lat": "35.2163",
        "lon": "80.9539",
        "zoom": "10",
        "hasPiano": "true",
        "pianoShortLocation": "Main concourse",
        "lastConfirmed": "August 2023",
        "description": "A piano is available for use in the main concourse."
    },
    {
        "iata": "PMO",
        "name": "Falcone-Borsellino Airport",
        "city": "Palermo",
        "state": "Sicily",
        "country": "Italy",
        "lat": "38.1795",
        "lon": "13.0990",
        "zoom": "10",
        "hasPiano": "true",
        "pianoShortLocation": "Departures",
        "lastConfirmed": "August 2023",
        "description": "A piano is available for public use in the Departures hall."
    },
    {
        "iata": "ICN",
        "name": "Incheon International Airport",
        "city": "Incheon",
        "state": "Incheon",
        "country": "South Korea",
        "lat": "37.4491",
        "lon": "126.4505",
        "zoom": "10",
        "hasPiano": "true",
        "pianoShortLocation": "After passing through security",
        "lastConfirmed": "August 2023",
        "description": "Pianos are available for public use in T1 and T2. Both are located after customs and immigrations.",
        "rating": "5",
        "reviews": "1"
    },
    {
        "iata": "SLC",
        "name": "Salt Lake City International Airport",
        "city": "Salt Lake City",
        "state": "Utah",
        "country": "United States",
        "lat": "40.788389",
        "lon": "-111.977772",
        "zoom": "10",
        "hasPiano": "true",
        "pianoShortLocation": "After passing through security",
        "lastConfirmed": "August 2023",
        "description": "A piano is available for public use after passing through security.",
        "rating": "5",
        "reviews": "1"
    },
    {
        "iata": "MEX",
        "name": "Mexico City International Airport",
        "city": "Mexico City",
        "state": "Mexico City",
        "country": "Mexico",
        "lat": "19.436076",
        "lon": "-99.071908",
        "zoom": "10",
        "hasPiano": "true",
        "pianoShortLocation": "Terminal 2",
        "lastConfirmed": "August 2023",
        "description": "A piano is available for public use in Terminal 2 at around Gate 70.",
        "rating": "5",
        "reviews": "1"
    },
    {
        "iata": "ORD",
        "name": "Chicago O'Hare International Airport",
        "city": "Chicago",
        "state": "Illinois",
        "country": "United States",
        "lat": "41.979595",
        "lon": "-87.904464",
        "zoom": "10",
        "hasPiano": "true",
        "pianoShortLocation": "Gate C17",
        "lastConfirmed": "April 2023",
        "description": "A grand piano is available for public use at Gate C17.",
        "rating": "5",
        "reviews": "1"
    },
    {
        "iata": "EWR",
        "name": "Newark Liberty International Airport",
        "city": "Newark",
        "state": "New Jersey",
        "country": "United States",
        "lat": "40.689543574161426",
        "lon": "-74.17441948791812",
        "zoom": "10",
        "hasPiano": "true",
        "pianoShortLocation": "Terminal C, Gate C73",
        "lastConfirmed": "April 2023",
        "description": "A grand piano is available for use at Terminal C at Gate C73.",
        "rating": "5",
        "reviews": "1"
    },
    {
        "iata": "EDI",
        "name": "Edinburgh Airport",
        "city": "Edinburgh",
        "state": "Scotland",
        "country": "United Kingdom",
        "lat": "55.950136",
        "lon": "-3.372947",
        "zoom": "10",
        "hasPiano": "false",
        "pianoShortLocation": "Departures",
        "lastConfirmed": "July 2023",
        "description": "A grand piano was previously available for public use in the Departures area. In July 2023, the piano was not available.",
        "rating": "4",
        "reviews": "1"
    },
    {
        "iata": "FCO",
        "name": "Leonardo da Vinci-Fiumicino Airport",
        "city": "Rome",
        "state": "Lazio",
        "country": "Italy",
        "lat": "41.79607443623127",
        "lon": "12.24963796735267",
        "zoom": "10",
        "hasPiano": "true",
        "pianoShortLocation": "Unknown",
        "lastConfirmed": "2022",
        "description": "A piano is available for public use in the airport."
    },
    {
        "iata": "CIA",
        "name": "Ciampino-G. B. Pastine International Airport",
        "city": "Rome",
        "state": "Lazio",
        "country": "Italy",
        "lat": "41.7991",
        "lon": "12.5929",
        "zoom": "10",
        "hasPiano": "true",
        "pianoShortLocation": "Main Gates",
        "lastConfirmed": "July 2022",
        "description": "A piano is available for public use after security and before passport check in the main gates."
    },
    {
        "iata": "AMS",
        "name": "Amsterdam Airport Schiphol",
        "city": "Amsterdam",
        "state": "",
        "country": "Netherlands",
        "lat": "52.308613",
        "lon": "4.763889",
        "zoom": "10",
        "hasPiano": "true",
        "pianoShortLocation": "Departures",
        "lastConfirmed": "2022",
        "description": "A piano is available for public use in the airport."
    },
    {
        "iata": "DTW",
        "name": "Detroit Metropolitan Wayne County Airport",
        "city": "Detroit",
        "state": "Michigan",
        "country": "United States",
        "lat": "42.212444",
        "lon": "-83.353389",
        "zoom": "10",
        "hasPiano": "true",
        "pianoShortLocation": "McNamara Terminal",
        "lastConfirmed": "2022",
        "description": "A piano is available for public use in the McNamara Terminal at Gate A73."
    },
    {
        "iata": "DUB",
        "name": "Dublin Airport",
        "city": "Dublin",
        "state": "",
        "country": "Ireland",
        "lat": "53.421333",
        "lon": "-6.270075",
        "zoom": "10",
        "hasPiano": "true",
        "pianoShortLocation": "Terminal 1",
        "lastConfirmed": "August 2023",
        "description": "A piano is available for public use outside the Terminal 1 arrivals hall."
    },
    {
        "iata": "LAX",
        "name": "Los Angeles International Airport",
        "city": "Los Angeles",
        "state": "California",
        "country": "United States",
        "lat": "33.942495",
        "lon": "-118.408068",
        "zoom": "10",
        "hasPiano": "true",
        "pianoShortLocation": "Terminal 7 and Tom Bradley International Terminal",
        "lastConfirmed": "May 2023",
        "description": "There is a piano available in Terminal 7 and at the seating area by Burger King at the West Gates in Tom Bradley International Terminal."
    },
    {
        "iata": "BRU",
        "name": "Brussels Airport",
        "city": "Brussels",
        "state": "Brussels-Capital Region",
        "country": "Belgium",
        "lat": "50.90032583457687",
        "lon": "4.485984812280702",
        "zoom": "10",
        "hasPiano": "true",
        "pianoShortLocation": "Terminal B, before gate B01",
        "lastConfirmed": "July 2023",
        "description": "There is a piano available before gate B01 in Terminal B"
    }
]
