[
    {
        "iata": "ORD",
        "name": "Chicago O'Hare International Airport",
        "city": "Chicago",
        "state": "Illinois",
        "country": "United States",
        "lat": "41.979595",
        "lon": "-87.904464",
        "zoom": "10",
        "hasPiano": "true",
        "pianoShortLocation": "Gate C17",
        "lastConfirmed": "April 2023",
        "description": "A grand piano is available for public use at Gate C17.",
        "rating": "5",
        "reviews": "1"
    },
    {
        "iata": "EDI",
        "name": "Edinburgh Airport",
        "city": "Edinburgh",
        "state": "Scotland",
        "country": "United Kingdom",
        "lat": "55.950136",
        "lon": "-3.372947",
        "zoom": "10",
        "hasPiano": "false",
        "pianoShortLocation": "Departures",
        "lastConfirmed": "July 2023",
        "description": "A grand piano was previously available for public use in the Departures area. In July 2023, the piano was not available.",
        "rating": "4",
        "reviews": "1"
    },
    {
        "iata": "FCO",
        "name": "Leonardo da Vinci-Fiumicino Airport",
        "city": "Rome",
        "state": "Lazio",
        "country": "Italy",
        "lat": "41.79607443623127",
        "lon": "12.24963796735267",
        "zoom": "10",
        "hasPiano": "true",
        "pianoShortLocation": "Unknown",
        "lastConfirmed": "2022",
        "description": "A piano is available for public use in the airport."
    },
    {
        "iata": "CIA",
        "name": "Ciampino-G. B. Pastine International Airport",
        "city": "Rome",
        "state": "Lazio",
        "country": "Italy",
        "lat": "41.7991",
        "lon": "12.5929",
        "zoom": "10",
        "hasPiano": "true",
        "pianoShortLocation": "Main Gates",
        "lastConfirmed": "July 2022",
        "description": "A piano is available for public use after security and before passport check in the main gates."
    },
    {
        "iata": "AMS",
        "name": "Amsterdam Airport Schiphol",
        "city": "Amsterdam",
        "state": "",
        "country": "Netherlands",
        "lat": "52.308613",
        "lon": "4.763889",
        "zoom": "10",
        "hasPiano": "true",
        "pianoShortLocation": "Departures",
        "lastConfirmed": "2022",
        "description": "A piano is available for public use in the airport."
    },
    {
        "iata": "DTW",
        "name": "Detroit Metropolitan Wayne County Airport",
        "city": "Detroit",
        "state": "Michigan",
        "country": "United States",
        "lat": "42.212444",
        "lon": "-83.353389",
        "zoom": "10",
        "hasPiano": "true",
        "pianoShortLocation": "McNamara Terminal",
        "lastConfirmed": "2022",
        "description": "A piano is available for public use in the McNamara Terminal at Gate A73."
    },
    {
        "iata": "DUB",
        "name": "Dublin Airport",
        "city": "Dublin",
        "state": "",
        "country": "Ireland",
        "lat": "53.421333",
        "lon": "-6.270075",
        "zoom": "10",
        "hasPiano": "true",
        "pianoShortLocation": "Terminal 1",
        "lastConfirmed": "",
        "description": "A piano is available for public use in the Terminal 1 arrivals hall."
    },
    {
        "iata": "LAX",
        "name": "Los Angeles International Airport",
        "city": "Los Angeles",
        "state": "California",
        "country": "United States",
        "lat": "33.942495",
        "lon": "-118.408068",
        "zoom": "10",
        "hasPiano": "true",
        "pianoShortLocation": "Terminal 7 and Tom Bradley International Terminal",
        "lastConfirmed": "May 2023",
        "description": "There is a piano available in Terminal 7 and at the seating area by Burger King at the West Gates in Tom Bradley International Terminal."
    }
]
