[    {
  "iata": "PRG",
  "title": "Prague Vaclav Havel Airport",
  "city": "Prague",
  "state": "Prague",
  "country": "Poland",
  "lat": "50.1018",
  "long": "14.2632",
  "zoom": "12",
  "hasPiano": "true",
  "pianoShortLocation": "Terminal 2",
  "lastConfirmed": 2025,
  "description": "Prague Vaclav Havel Airport has a piano in Terminal 2.",
  "slug": "prg"
},{
  "iata": "IST",
  "title": "Istanbul Airport",
  "city": "Istanbul",
  "state": "Istanbul",
  "country": "Türkiye",
  "lat": "41.2768",
  "long": "28.7301",
  "zoom": "12",
  "hasPiano": "true",
  "pianoShortLocation": "IST has a piano in the airport lounge.",
  "lastConfirmed": "May 2025",
  "description": "IST has a piano in the airport lounge.",
  "slug": "ist"
},{
  "iata": "HND",
  "title": "Haneda International Airport",
  "city": "Haneda",
  "state": "Tokyo",
  "country": "Japan",
  "lat": "35.5483",
  "long": "139.7780",
  "zoom": "12",
  "hasPiano": "true",
  "pianoShortLocation": "Terminal 3 Arrivals",
  "lastConfirmed": 2025,
  "description": "Haneda International Airport has a piano in Terminal 3 Arrivals.",
  "slug": "hnd"
},{
        "iata": "CPH",
        "title": "Copenhagen Kastrup International Airport",
        "city": "Copenhagen",
        "state": "Copenhagen",
        "country": "Denmark",
        "lat": "55.6120",
        "long": "12.6477",
        "zoom": "12",
        "hasPiano": "true",
        "pianoShortLocation": "Terminal 3",
        "lastConfirmed": "2025",
        "description": "There is a piano for public use located at Terminal 3.",
        "slug": "cph"
    },{
        "iata": "BCN",
        "title": "Josep Tarradellas Barcelona–El Prat Airport",
        "city": "Barcelona",
        "state": "Barcelona",
        "country": "Spain",
        "lat": "41.2983",
        "long": "2.0800",
        "zoom": "12",
        "hasPiano": "true",
        "pianoShortLocation": "Terminal 1",
        "lastConfirmed": "2025",
        "description": "There is a piano for public use in Terminal 1.",
        "slug": "bcn"
    },{
        "iata": "SEA",
        "title": "Seattle-Tacoma International Airport",
        "city": "Seattle",
        "state": "Washington",
        "country": "United States",
        "lat": "47.4484",
        "long": "-122.3086",
        "zoom": "12",
        "hasPiano": "true",
        "pianoShortLocation": "Gate A",
        "lastConfirmed": "2025",
        "description": "There is a piano for public use in the seating area by the A gate, after you go through security.",
        "slug": "sea"
    },{
        "iata": "MAD",
        "title": "Adolfo Suárez Madrid-Barajas Airport",
        "city": "Madrid",
        "state": "Madrid",
        "country": "Spain",
        "lat": "40.4895",
        "long": "-3.5643",
        "zoom": "12",
        "hasPiano": "true",
        "pianoShortLocation": "Terminal 4.",
        "lastConfirmed": "2025",
        "description": "There is a piano for public use available in Terminal 4.",
        "slug": "mad"
    },{
        "iata": "MIA",
        "title": "Miami International Airport",
        "city": "Miami",
        "state": "Florida",
        "country": "United States",
        "lat": "25.7923",
        "long": "-80.2823",
        "zoom": "12",
        "hasPiano": "true",
        "pianoShortLocation": "Gate E",
        "lastConfirmed": "2025",
        "description": "Miami International Airport has a piano at Gate E",
        "slug": "mia"
    },{
        "iata": "BOS",
        "title": "Boston Logan International Airport",
        "city": "Boston",
        "state": "Massachusetts",
        "country": "United States",
        "lat": "42.3656",
        "long": "-71.0096",
        "zoom": "12",
        "hasPiano": "true",
        "pianoShortLocation": "Gate E8 after security, in front of Duty Free Beauty",
        "lastConfirmed": "2025",
        "description": "Boston Logan International Airport has a piano at gate E8 after security, in front of Duty Free Beauty.",
        "slug": "bos"
    },{
        "iata": "CTA",
        "title": "Catania–Fontanarossa Airport",
        "city": "Catania",
        "state": "Catania",
        "country": "Italy",
        "lat": "37.4663",
        "long": "15.0651",
        "zoom": "12",
        "hasPiano": "true",
        "pianoShortLocation": "Near gate 5, after the security check",
        "lastConfirmed": "2025",
        "description": "Catania–Fontanarossa Airport has a piano near gate 5, after the security check.",
        "slug": "cta"
    },{
        "iata": "MVD",
        "title": "Carrasco International Airport",
        "city": "Ciudad de la Costa",
        "state": "Ciudad de la Costa",
        "country": "Uruguay",
        "lat": "34.8371",
        "long": "-56.0162",
        "zoom": "12",
        "hasPiano": "true",
        "pianoShortLocation": "After security",
        "lastConfirmed": "2025",
        "description": "Carrasco International Airport in Montevideo has a piano just after security.",
        "slug": "mvd"
    },{
        "iata": "BGY",
        "title": "Orio al Serio International Airport",
        "city": "Milan",
        "state": "Milan",
        "country": "Italy",
        "lat": "45.6690",
        "long": "9.7074",
        "zoom": "12",
        "hasPiano": "true",
        "pianoShortLocation": "Gate A7",
        "lastConfirmed": "2025",
        "description": "Orio al Serio International Airport has a piano at gate A7",
        "slug": "bgy"
    },{
        "iata": "BUD",
        "title": "Budapest Ferenc Liszt International Airport",
        "city": "Budapest",
        "state": "Budapest",
        "country": "Hungary",
        "lat": "47.4385",
        "long": "19.2540",
        "zoom": "12",
        "hasPiano": "true",
        "pianoShortLocation": "2A, near A17 gate, in the new wing",
        "lastConfirmed": "2025",
        "description": "Budapest Ferenc Liszt International Airport has a piano at 2A, near A17 gate, in the new wing",
        "slug": "bud"
    },{
        "iata": "BGO",
        "title": "Bergen Airport",
        "city": "Flesland",
        "state": "Flesland",
        "country": "Norway",
        "lat": "60.2938",
        "long": "5.2219",
        "zoom": "12",
        "hasPiano": "true",
        "pianoShortLocation": "Departures",
        "lastConfirmed": "2024",
        "description": "Bergen Airport has a piano in the departures area.",
        "slug": "bgo"
    },{
        "iata": "PMI",
        "title": "Palma de Mallorca",
        "city": "Palma",
        "state": "Palma",
        "country": "Spain",
        "lat": "40.8847",
        "long": "14.2892",
        "zoom": "12",
        "hasPiano": "true",
        "pianoShortLocation": "Terminal D, Gate C, on the way to C60.",
        "lastConfirmed": "2025",
        "description": "Palma de Mallorca has an airport in Terminal D, Gate C, on the way to C60.",
        "slug": "pmi"
    },{
        "iata": "NAP",
        "title": "Capodichino Airport",
        "city": "Naples",
        "state": "Naples",
        "country": "Italy",
        "lat": "40.8847",
        "long": "14.2892",
        "zoom": "12",
        "hasPiano": "true",
        "pianoShortLocation": "Area C, Departures",
        "lastConfirmed": "2024",
        "description": "Capodichino Airport has an airport in Area C, Departures.",
        "slug": "nap"
    },{
        "iata": "SNA",
        "title": "John Wayne Airport",
        "city": "Orange County",
        "state": "California",
        "country": "United States",
        "lat": "33.6747",
        "long": "117.8692",
        "zoom": "12",
        "hasPiano": "true",
        "pianoShortLocation": "Between Terminals B and C",
        "lastConfirmed": "2024",
        "description": "John Wayne Airport has a piano between Terminals B and C.",
        "slug": "sna"
    },{
        "iata": "ATL",
        "title": "Hartsfield-Jackson Atlanta International Airport",
        "city": "Atlanta",
        "state": "Georgia",
        "country": "United States",
        "lat": "33.6324",
        "long": "84.4333",
        "zoom": "12",
        "hasPiano": "true",
        "pianoShortLocation": "Concourse E",
        "lastConfirmed": "2024",
        "description": "Hartsfield-Jackson Atlanta International Airport airport has a piano at Concourse E, center, between the bar and Caribou Coffee.",
        "slug": "atl"
    },{
        "iata": "PVD",
        "title": "Rhode Island TF Green International Airport",
        "city": "Warwick",
        "state": "Rhode Island",
        "country": "United States",
        "lat": "41.7217",
        "long": "-71.4295",
        "zoom": "12",
        "hasPiano": "true",
        "pianoShortLocation": "Baggage claim",
        "lastConfirmed": "2024",
        "description": "Rhode Island TF Green International Airport has a piano in the baggage claim area.",
        "slug": "pvd"
    }, {
        "iata": "BER",
        "title": "Berlin Brandenburg Airport",
        "city": "Berlin",
        "state": "Berlin",
        "country": "Germany",
        "lat": "52.3650",
        "long": "13.5010",
        "zoom": "12",
        "hasPiano": "true",
        "pianoShortLocation": "Terminal 1",
        "lastConfirmed": "2024",
        "description": "Berlin Brandenberg Airport has a piano in the Terminal 1 departures area.",
        "slug": "ber"
    }, {
        "iata": "AUS",
        "title": "Austin Bergstrom International Airport",
        "city": "Austin",
        "state": "Texas",
        "country": "United States",
        "lat": "30.1940",
        "long": "-97.6712",
        "zoom": "12",
        "hasPiano": "true",
        "pianoShortLocation": "Main terminal",
        "lastConfirmed": "2024",
        "description": "Austin Bergstrom International Airport has a piano in the main terminal.",
        "slug": "aus"
    }, {
        "iata": "SAN",
        "title": "San Diego International Airport",
        "city": "San Diego",
        "state": "California",
        "country": "United States",
        "lat": "32.7332",
        "long": "-117.1897",
        "zoom": "12",
        "hasPiano": "true",
        "pianoShortLocation": "Terminal 2",
        "lastConfirmed": "2025",
        "description": "San Diego International Airport has a piano in Terminal 2, near gate 36.",
        "slug": "san"
    }, {
        "iata": "TLL",
        "title": "Tallinn Airport",
        "city": "Tallinn",
        "state": "Estonia",
        "country": "Estonia",
        "lat": "59.4146",
        "long": "24.8335",
        "zoom": "12",
        "hasPiano": "true",
        "pianoShortLocation": "Terminal 1",
        "lastConfirmed": "2024",
        "description": "Tallinn Airport has a piano in Terminal 1.",
        "slug": "tll"
    },  {
        "iata": "CMH",
        "title": "John Glenn Columbus International Airport",
        "city": "Columbus",
        "state": "Ohio",
        "country": "United States",
        "lat": "39.9999",
        "long": "-82.88725",
        "zoom": "12",
        "hasPiano": "true",
        "pianoShortLocation": "Center of ticket lobby",
        "lastConfirmed": "2024",
        "description": "CMH airport has a piano in the center of ticket lobby.",
        "slug": "cmh"
    },  {
        "iata": "YUL",
        "title": "Montréal-Trudeau International Airport",
        "city": "Dorval",
        "state": "Quebec",
        "country": "Canada",
        "lat": "45.4657",
        "long": "-73.7455",
        "zoom": "12",
        "hasPiano": "true",
        "pianoShortLocation": "Departure gate",
        "lastConfirmed": "2024",
        "description": "YUL airport has a piano between Gate 53 and Gate 64 (international area).",
        "slug": "yul"
    },   {
        "iata": "MVD",
        "title": "Aeropuerto Internacional de Carrasco",
        "city": "Ciudad de la Costa",
        "state": "Ciudad de la Costa",
        "country": "Uruguay",
        "lat": "-34.8371",
        "long": "-56.0162",
        "zoom": "12",
        "hasPiano": "true",
        "pianoShortLocation": "Departure gate",
        "lastConfirmed": "2024",
        "description": "MVD airport has a piano at the departure gate.",
        "slug": "mvd"
    },   {
        "iata": "MSP",
        "title": "Minneapolis–Saint Paul International Airport",
        "city": "Minneapolis",
        "state": "Minnesota",
        "country": "United States",
        "lat": "44.8803",
        "long": "-93.2169",
        "zoom": "12",
        "hasPiano": "true",
        "pianoShortLocation": "Terminal 1, Terminal 2 Gate H11",
        "lastConfirmed": "2024",
        "description": "MSP airport has a piano in Terminal 1 by the main 'hall' area, and in Terminal 2 near gate H11.",
        "slug": "msp"
    },   {
        "iata": "BWI",
        "title": "Baltimore/Washington International Thurgood Marshall Airport",
        "city": "Baltimore",
        "state": "Maryland",
        "country": "United States",
        "lat": "39.1776",
        "long": "-76.6684",
        "zoom": "12",
        "hasPiano": "true",
        "pianoShortLocation": "Unknown",
        "lastConfirmed": "2024",
        "description": "Baltimore/Washington International Thurgood Marshall Airport may have a piano, but the location was not submitted to this website. If you see the piano, consider submitting the location to this website so others can find it.",
        "slug": "bwi"
    },    {
        "iata": "OPO",
        "title": "Francisco Sá Carneiro Airport",
        "city": "Porto",
        "state": "Porto",
        "country": "Portugal",
        "lat": "41.2414",
        "long": "-8.6787",
        "zoom": "12",
        "hasPiano": "true",
        "pianoShortLocation": "Unknown",
        "lastConfirmed": "2024",
        "description": "Porto Airport has a piano near passport control for Gates 1-11. It was also noted the piano may not be playable at the moment in April 2024, or be available for play by professional musicians; we encourage you to check.",
        "slug": "opo"
    },    {
        "iata": "RIC",
        "title": "Richmond International Airport",
        "city": "Richmond",
        "state": "Virginia",
        "country": "United States",
        "lat": "37.505",
        "long": "-77.3241666667",
        "zoom": "12",
        "hasPiano": "true",
        "pianoShortLocation": "Unknown",
        "lastConfirmed": "2024",
        "description": "Richmond International Airport has a piano, but the location was not submitted to this website. If you see the piano, consider submitting the location to this website so others can find it. Happy playing!",
        "slug": "ric"
    },{
        "iata": "SJC",
        "title": "San José Mineta International Airport",
        "city": "San José",
        "state": "California",
        "country": "United States",
        "lat": "37.3640",
        "long": "-121.9289",
        "zoom": "12",
        "hasPiano": "true",
        "pianoShortLocation": "Terminal B",
        "lastConfirmed": "2025",
        "description": "San José airport no longer has a piano. The piano was previously in Terminal B, near baggage claim. If this has changed, please let us know!",
        "slug": "sjc"
    },
    {
        "iata": "ADL",
        "title": "Adelaide Airport",
        "city": "Adelaide",
        "state": "Adelaide",
        "country": "Australia",
        "lat": "-34.9462",
        "long": "-138.5312",
        "zoom": "12",
        "hasPiano": "true",
        "pianoShortLocation": "Terminal 1",
        "lastConfirmed": "2024",
        "description": "Adelaide Airport has a piano in Terminal 1, after security.",
        "slug": "adl"
    },
    {
        "iata": "OSL",
        "title": "Oslo Gardermoen Airport",
        "city": "Oslo",
        "state": "Oslo",
        "country": "Norway",
        "lat": "60.1979",
        "long": "11.0963",
        "zoom": "12",
        "hasPiano": "true",
        "pianoShortLocation": "Has a piano",
        "lastConfirmed": "2024",
        "description": "Oslo airport has a piano, but the exact location was not reported in the submission to this website.",
        "slug": "osl"
    },
    {
        "iata": "LIS",
        "title": "Humberto Delgado Airport",
        "city": "Lisbon",
        "state": "Lisbon",
        "country": "Portugal",
        "lat": "38.7800",
        "long": "9.1350",
        "zoom": "12",
        "hasPiano": "true",
        "pianoShortLocation": "No piano",
        "lastConfirmed": "March 2024",
        "description": "Lisbon airport does not have a piano.",
        "slug": "lis"
    },
    {
        "iata": "JFK",
        "title": "John F. Kennedy International Airport",
        "city": "New York",
        "state": "New York",
        "country": "United States",
        "lat": "40.6446",
        "long": "73.7797",
        "zoom": "12",
        "hasPiano": "true",
        "pianoShortLocation": "Terminal 4 and Terminal 7",
        "lastConfirmed": "N/A",
        "description": "A piano is available for use in Terminal 4 and Terminal 7.",
        "slug": "jfk"
    },
    {
        "iata": "MRU",
        "title": "Sir Seewoosagur Ramgoolam International Airport",
        "city": "Plaine Magnien",
        "state": "",
        "country": "Mauritius",
        "lat": "20.4335",
        "long": "57.6787",
        "zoom": "12",
        "hasPiano": "true",
        "pianoShortLocation": "At the terminal connecting to La Reunión.",
        "lastConfirmed": "February 2024",
        "description": "At the terminal connecting to La Reunión.",
        "slug": "mru"
    },
    {
        "iata": "HSV",
        "title": "Huntsville International Airport",
        "city": "Huntsville",
        "state": "Alabama",
        "country": "United States",
        "lat": "34.6450",
        "long": "-86.7766",
        "zoom": "12",
        "hasPiano": "true",
        "pianoShortLocation": "Before security",
        "lastConfirmed": "May 2024",
        "description": "A piano is available for use just before security, near a seating area.",
        "slug": "hsv"
    },
    {
        "iata": "MUC",
        "title": "Munich International Airport",
        "city": "Munich",
        "state": "Munich",
        "country": "Germany",
        "lat": "48.3536",
        "long": "11.7832",
        "zoom": "12",
        "hasPiano": "false",
        "pianoShortLocation": "N/A",
        "lastConfirmed": "2025",
        "description": "Munich airport used to have a piano in front of Käfer Bistro. It no longer has a piano.",
        "slug": "muc"
    },
    {
        "iata": "LGA",
        "title": "LaGuardia Airport",
        "city": "New York",
        "state": "New York",
        "country": "United States",
        "lat": "40.7769",
        "long": "73.8740",
        "zoom": "12",
        "hasPiano": "false",
        "pianoShortLocation": "N/A",
        "lastConfirmed": "N/A",
        "description": "LaGuardia Airport does not have a piano in Terminal 2. No information has been submitted for other terminals.",
        "slug": "lga"
    },
    {
        "iata": "BTV",
        "title": "Burlington International Airport",
        "city": "Burlington",
        "state": "Vermont",
        "country": "United States",
        "lat": "44.4698",
        "long": "-73.1520",
        "zoom": "10",
        "hasPiano": "true",
        "pianoShortLocation": "Between both terminals",
        "lastConfirmed": "May 2025",
        "description": "Across from Gate 7, behind The Skinny Pancake. ",
        "slug": "btv"
    },
    {
        "iata": "WAW",
        "title": "Warsaw Chopin Airport",
        "city": "Warsaw",
        "state": "",
        "country": "Poland",
        "lat": "52.1644",
        "long": "20.9697",
        "zoom": "10",
        "hasPiano": "true",
        "pianoShortLocation": "Departures 2",
        "lastConfirmed": "August 2023",
        "description": "A piano may be available for public use in Departures 2 (submitter was not sure about the exact location).",
        "slug": "waw"
    },
    {
        "iata": "YYC",
        "title": "Calgary International Airport",
        "city": "Calgary",
        "state": "Alberta",
        "country": "Canada",
        "lat": "51.1308",
        "long": "114.0131",
        "zoom": "10",
        "hasPiano": "true",
        "pianoShortLocation": "Departures",
        "lastConfirmed": "August 2023",
        "description": "Gate D, in the intersection between the D80-D97 hallway and the D72+ hallway.",
        "slug": "yyc"
    },
    {
        "iata": "YYZ",
        "title": "Toronto Pearson International Airport",
        "city": "Toronto",
        "state": "Ontario",
        "country": "Canada",
        "lat": "43.6797",
        "lon": "79.6227",
        "zoom": "10",
        "hasPiano": "true",
        "pianoShortLocation": "Terminal 1",
        "lastConfirmed": "August 2023",
        "description": "An upright piano is available for public use in Terminal 1 at Gate D20.",
        "slug": "yyz"
    },
    {
        "iata": "NCE",
        "title": "Nice Côte d'Azur Airport",
        "city": "Nice",
        "state": "Provence-Alpes-Côte d'Azur",
        "country": "France",
        "lat": "43.6598",
        "lon": "7.2148",
        "zoom": "10",
        "hasPiano": "true",
        "pianoShortLocation": "Terminal 1",
        "lastConfirmed": "August 2023",
        "description": "A piano is available for public use in Terminal 1.",
        "slug": "nce"
    },
    {
        "iata": "CDG",
        "title": "Charles de Gaulle Airport",
        "city": "Paris",
        "state": "Île-de-France",
        "country": "France",
        "lat": "49.0079",
        "lon": "2.5508",
        "zoom": "10",
        "hasPiano": "true",
        "pianoShortLocation": "Terminals 1 and 3 3",
        "lastConfirmed": "August 2023",
        "description": "A piano is available for public use in Terminal 3 at gate area 2 and in Terminal.",
        "slug": "cdg"
    },
    {
        "iata": "CRL",
        "title": "Brussels South Charleroi Airport",
        "city": "Charleroi",
        "state": "Wallonia",
        "country": "Belgium",
        "lat": "50.46422",
        "lon": "4.464975",
        "zoom": "10",
        "hasPiano": "true",
        "pianoShortLocation": "Terminal 1",
        "lastConfirmed": "August 2023",
        "description": "A piano is available in Terminal 1 after security check.",
        "slug": "crl"
    },
    {
        "iata": "LMML",
        "title": "Malta International Airport",
        "city": "Luqa",
        "state": "Malta",
        "country": "Malta",
        "lat": "35.8494",
        "lon": "14.4958",
        "zoom": "10",
        "hasPiano": "true",
        "pianoShortLocation": "Departures",
        "lastConfirmed": "August 2023",
        "description": "A piano is available for public use in the Departures area, between gates 1-4 near the Airport Information desk, and/or potentially at Gate 6.",
        "slug": "lmml"
    },
    {
        "iata": "SYR",
        "title": "Syracuse Hancock International Airport",
        "city": "Syracuse",
        "state": "New York",
        "country": "United States",
        "lat": "43.0481",
        "lon": "76.1474",
        "zoom": "10",
        "hasPiano": "true",
        "pianoShortLocation": "Main departures hall",
        "lastConfirmed": "August 2023",
        "description": "A piano is available for public use in the main departures hall before the security escalators.",
        "slug": "syr"
    },
    {
        "iata": "CLT",
        "title": "Charlotte Douglas International Airport",
        "city": "Charlotte",
        "state": "North Carolina",
        "country": "United States",
        "lat": "35.2163",
        "lon": "80.9539",
        "zoom": "10",
        "hasPiano": "true",
        "pianoShortLocation": "Main concourse",
        "lastConfirmed": "August 2023",
        "description": "A piano is available for use in the main concourse. at the intersection area of terminals E and the other terminals. The piano is close to some shops in the airport.",
        "slug": "clt"
    },
    {
        "iata": "PMO",
        "title": "Falcone-Borsellino Airport",
        "city": "Palermo",
        "state": "Sicily",
        "country": "Italy",
        "lat": "38.1795",
        "lon": "13.0990",
        "zoom": "10",
        "hasPiano": "true",
        "pianoShortLocation": "Departures",
        "lastConfirmed": "August 2023",
        "description": "A piano is available for public use in the Departures hall.",
        "slug": "pmo"
    },
    {
        "iata": "ICN",
        "title": "Incheon International Airport",
        "city": "Incheon",
        "state": "Incheon",
        "country": "South Korea",
        "lat": "37.4491",
        "lon": "126.4505",
        "zoom": "10",
        "hasPiano": "true",
        "pianoShortLocation": "After passing through security",
        "lastConfirmed": "August 2023",
        "description": "Pianos are available for public use in T1 and T2. Both are located after customs and immigrations.",
        "rating": "5",
        "reviews": "1",
        "slug": "icn"
    },
    {
        "iata": "SLC",
        "title": "Salt Lake City International Airport",
        "city": "Salt Lake City",
        "state": "Utah",
        "country": "United States",
        "lat": "40.788389",
        "lon": "-111.977772",
        "zoom": "10",
        "hasPiano": "true",
        "pianoShortLocation": "After passing through security near the A gate.",
        "lastConfirmed": "February 2025",
        "description": "A piano is available for public use after passing through security near the A gate.",
        "rating": "5",
        "reviews": "2",
        "slug": "slc"
    },
    {
        "iata": "MEX",
        "title": "Mexico City International Airport",
        "city": "Mexico City",
        "state": "Mexico City",
        "country": "Mexico",
        "lat": "19.436076",
        "lon": "-99.071908",
        "zoom": "10",
        "hasPiano": "true",
        "pianoShortLocation": "Terminal 2",
        "lastConfirmed": "August 2023",
        "description": "A piano is available for public use in Terminal 2 at around Gate 70.",
        "rating": "5",
        "reviews": "1",
        "slug": "mex"
    },
    {
        "iata": "ORD",
        "title": "Chicago O'Hare International Airport",
        "city": "Chicago",
        "state": "Illinois",
        "country": "United States",
        "lat": "41.979595",
        "lon": "-87.904464",
        "zoom": "10",
        "hasPiano": "true",
        "pianoShortLocation": "Gate C17",
        "lastConfirmed": "April 2023",
        "description": "A grand piano is available for public use at Gate C17.",
        "rating": "5",
        "reviews": "1",
        "slug": "ord"
    },
    {
        "iata": "EWR",
        "title": "Newark Liberty International Airport",
        "city": "Newark",
        "state": "New Jersey",
        "country": "United States",
        "lat": "40.689543574161426",
        "lon": "-74.17441948791812",
        "zoom": "10",
        "hasPiano": "true",
        "pianoShortLocation": "Terminal C, Gate C73",
        "lastConfirmed": "April 2025",
        "description": "A grand piano is available for use at Terminal C at Gate C73.",
        "rating": "5",
        "reviews": "1",
        "slug": "ewr"
    },
    {
        "iata": "EDI",
        "title": "Edinburgh Airport",
        "city": "Edinburgh",
        "state": "Scotland",
        "country": "United Kingdom",
        "lat": "55.950136",
        "lon": "-3.372947",
        "zoom": "10",
        "hasPiano": "false",
        "pianoShortLocation": "Departures",
        "lastConfirmed": "July 2023",
        "description": "A grand piano was previously available for public use in the Departures area. In July 2023, the piano was not available.",
        "rating": "4",
        "reviews": "1",
        "slug": "edi"
    },
    {
        "iata": "FCO",
        "title": "Leonardo da Vinci-Fiumicino Airport",
        "city": "Rome",
        "state": "Lazio",
        "country": "Italy",
        "lat": "41.8034",
        "lon": "12.2519",
        "zoom": "10",
        "hasPiano": "true",
        "pianoShortLocation": "Terminal 3, near Gate E17",
        "lastConfirmed": "August 2023",
        "description": "Two grand pianos are available for public use in Terminal 3 (imternational flights) near Gate E17, after security.",
        "rating": "5",
        "reviews": "1",
        "slug": "fco"
    },
    {
        "iata": "CIA",
        "title": "Ciampino-G. B. Pastine International Airport",
        "city": "Rome",
        "state": "Lazio",
        "country": "Italy",
        "lat": "41.7991",
        "lon": "12.5929",
        "zoom": "10",
        "hasPiano": "true",
        "pianoShortLocation": "Main Gates",
        "lastConfirmed": "July 2022",
        "description": "A piano is available for public use after security and before passport check in the main gates.",
        "rating": "5",
        "reviews": "1",
        "slug": "cia"
    },
    {
        "iata": "AMS",
        "title": "Amsterdam Airport Schiphol",
        "city": "Amsterdam",
        "state": "",
        "country": "Netherlands",
        "lat": "52.308613",
        "lon": "4.763889",
        "zoom": "10",
        "hasPiano": "true",
        "pianoShortLocation": "Departures",
        "lastConfirmed": "2022",
        "description": "A piano is available for public use in the airport.",
        "rating": "5",
        "reviews": "1",
        "slug": "ams"
    },
    {
        "iata": "DTW",
        "title": "Detroit Metropolitan Wayne County Airport",
        "city": "Detroit",
        "state": "Michigan",
        "country": "United States",
        "lat": "42.212444",
        "lon": "-83.353389",
        "zoom": "10",
        "hasPiano": "true",
        "pianoShortLocation": "McNamara Terminal",
        "lastConfirmed": "2022",
        "description": "A piano is available for public use in the McNamara Terminal at Gate A73.",
        "rating": "5",
        "reviews": "1",
        "slug": "dtw"
    },
    {
        "iata": "DUB",
        "title": "Dublin Airport",
        "city": "Dublin",
        "state": "",
        "country": "Ireland",
        "lat": "53.421333",
        "lon": "-6.270075",
        "zoom": "10",
        "hasPiano": "true",
        "pianoShortLocation": "Terminal 1",
        "lastConfirmed": "August 2023",
        "description": "A piano is available for public use outside the Terminal 1 arrivals hall.",
        "rating": "5",
        "reviews": "1",
        "slug": "dub"
    },
    {
        "iata": "LAX",
        "title": "Los Angeles International Airport",
        "city": "Los Angeles",
        "state": "California",
        "country": "United States",
        "lat": "33.942495",
        "lon": "-118.408068",
        "zoom": "10",
        "hasPiano": "true",
        "pianoShortLocation": "Terminal 7 and Tom Bradley International Terminal",
        "lastConfirmed": "March 2025",
        "description": "There is a piano available in T and Terminal 7 and at the seating area by Burger King at the West Gates in Tom Bradley International Terminal. There may be a piano in Terminal 4 but this needs to be confirmed again.",
        "rating": "5",
        "reviews": "1",
        "slug": "lax"
    },
    {
        "iata": "BRU",
        "title": "Brussels Airport",
        "city": "Brussels",
        "state": "Brussels-Capital Region",
        "country": "Belgium",
        "lat": "50.90032583457687",
        "lon": "4.485984812280702",
        "zoom": "10",
        "hasPiano": "true",
        "pianoShortLocation": "Terminal B, before gate B01",
        "lastConfirmed": "July 2023",
        "description": "There is a piano available before gate B01 in Terminal B",
        "rating": "5",
        "reviews": "1",
        "slug": "bru"
    }
]
